,City,Lat,Lng,Max Temp,Humidity,Cloudiness,Wind Speed,Country,Date
0,yellowknife,62.456,-114.3525,46.56,81,54,4.0,CA,1687086391
1,barranca,-10.75,-77.7667,67.98,82,100,7.54,PE,1687086537
2,myrtle beach,33.6891,-78.8867,70.09,89,0,0.0,US,1687086538
3,bethel,41.3712,-73.414,63.48,79,100,3.44,US,1687086539
4,grytviken,-54.2811,-36.5092,28.29,68,47,7.11,GS,1687086539
5,edinburgh of the seven seas,-37.0676,-12.3116,53.85,60,75,5.35,SH,1687086397
6,arica,-18.475,-70.3042,62.83,72,100,9.22,CL,1687086540
7,yamazakicho-nakabirose,35.0,134.55,72.34,83,99,3.76,JP,1687086541
8,qamdo,31.1667,97.2333,54.03,47,94,0.54,CN,1687086541
9,sola,-13.8833,167.55,78.01,78,100,19.84,VU,1687086542
10,la passe,45.5549,-0.8967,79.03,85,100,8.72,FR,1687086542
11,margaret river,-33.95,115.0667,52.14,68,69,2.98,AU,1687086543
12,georgetown,5.4112,100.3354,87.73,45,20,6.91,MY,1687086257
13,margate,51.3813,1.3862,69.91,88,100,14.14,GB,1687086544
14,keflavik,64.0049,-22.5624,50.43,81,100,1.14,IS,1687086544
15,selizharovo,56.8519,33.4487,76.05,35,91,3.76,RU,1687086545
16,west island,-12.1568,96.8225,78.78,83,75,16.11,CC,1687086546
17,college,64.8569,-147.8028,54.59,92,40,0.0,US,1687086548
18,blackmans bay,-43.0167,147.3167,50.13,77,43,13.4,AU,1687086549
19,malanje,-9.5402,16.341,83.98,18,3,5.59,AO,1687086549
20,jamestown,42.097,-79.2353,54.99,88,0,1.01,US,1687086550
21,port-aux-francais,-49.35,70.2167,39.9,82,9,29.39,TF,1687086550
22,waitangi,-43.9535,-176.5597,50.83,80,100,5.01,NZ,1687086551
23,lata,40.1629,-8.3327,74.07,47,98,4.43,PT,1687086552
24,bandarbeyla,9.4942,50.8122,91.81,46,4,22.3,SO,1687086552
25,luderitz,-26.6481,15.1594,65.7,58,0,12.28,NA,1687086553
26,petropavlovsk-kamchatsky,53.0452,158.6483,45.19,100,100,0.0,RU,1687086312
27,ust-nera,64.5667,143.2,62.74,44,23,9.95,RU,1687086554
28,stanley,54.868,-1.6985,68.74,62,20,6.91,GB,1687086351
29,essaouira,31.5125,-9.77,72.86,75,0,18.23,MA,1687086516
30,adamstown,-25.066,-130.1015,72.79,74,73,14.58,PN,1687086556
31,longyearbyen,78.2186,15.6401,40.84,93,75,1.14,SJ,1687086556
32,walvis bay,-22.9575,14.5053,58.08,49,0,16.53,NA,1687086557
33,papatowai,-46.5619,169.4708,46.18,92,79,9.28,NZ,1687086557
34,dwarka,22.2394,68.9678,87.96,69,82,15.19,IN,1687086558
35,ushuaia,-54.8,-68.3,33.46,86,100,12.66,AR,1687086285
36,bilibino,68.0546,166.4372,45.03,70,52,2.68,RU,1687086560
37,belmonte,-15.8631,-38.8828,73.78,84,29,6.69,BR,1687086560
38,khandyga,62.6667,135.6,65.59,67,57,2.48,RU,1687086561
39,anadyr,64.75,177.4833,43.3,70,0,6.71,RU,1687086561
40,san patricio,28.017,-97.5169,82.85,97,86,5.84,US,1687086562
41,dudinka,69.4058,86.1778,45.63,72,100,11.72,RU,1687086481
42,menzelinsk,55.7271,53.1026,62.46,34,15,18.95,RU,1687086563
43,sardarshahr,28.4333,74.4833,84.42,67,100,7.09,IN,1687086563
44,qaqortoq,60.7167,-46.0333,42.91,62,86,4.7,GL,1687086564
45,lezajsk,50.2626,22.4193,74.21,64,100,1.95,PL,1687086565
46,rio grande,-32.035,-52.0986,41.11,86,0,12.62,BR,1687086342
47,port elizabeth,-33.918,25.5701,66.09,70,38,1.99,ZA,1687086566
48,polovinnoye,54.7914,65.9864,60.78,49,100,12.97,RU,1687086566
49,chibougamau,49.9168,-74.3659,53.65,81,8,3.24,CA,1687086567
50,st. john's,47.5649,-52.7093,44.28,97,100,7.0,CA,1687086567
51,robertsport,6.7533,-11.3686,81.61,75,100,9.62,LR,1687086568
52,aldinga beach,-35.2793,138.4604,55.67,80,28,21.5,AU,1687086570
53,puerto natales,-51.7236,-72.4875,34.66,79,26,11.34,CL,1687086570
54,martapura,-3.4167,114.85,87.89,70,20,4.61,ID,1687086571
55,happy valley-goose bay,53.3168,-60.3315,41.05,71,99,5.68,CA,1687086571
56,yung shue wan,22.2333,114.1167,85.75,81,100,9.75,HK,1687086572
57,afaahiti,-17.75,-149.2833,73.06,72,39,5.77,PF,1687086572
58,summerside,46.3959,-63.7876,55.47,96,100,21.34,CA,1687086573
59,hamilton,39.1834,-84.5333,59.99,91,0,0.0,US,1687086541
60,east london,-33.0153,27.9116,66.06,55,99,4.74,ZA,1687086574
61,arapgir,39.0412,38.4952,73.49,42,63,4.27,TR,1687086576
62,yuzhno-kurilsk,44.0306,145.8556,48.65,92,100,17.94,RU,1687086576
63,ulsteinvik,62.3432,5.8487,70.7,75,57,3.0,NO,1687086394
64,christchurch,-43.5333,172.6333,53.8,92,100,16.11,NZ,1687086361
65,puerto ayora,-0.7393,-90.3518,77.56,95,75,8.01,EC,1687086578
66,fale old settlement,-9.3852,-171.2468,82.56,74,33,3.44,TK,1687086579
67,pandan,14.0453,124.1694,81.84,80,8,6.11,PH,1687086579
68,kharkhorin,47.1975,102.8238,60.93,50,100,7.23,MN,1687086580
69,olonkinbyen,70.9221,-8.7187,39.43,97,100,7.87,SJ,1687086580
70,albany,42.6001,-73.9662,61.41,86,100,1.01,US,1687086581
71,hawaiian paradise park,19.5933,-154.9731,72.03,94,100,5.75,US,1687086581
72,wailua homesteads,22.0669,-159.378,74.19,87,20,10.36,US,1687086582
73,bredasdorp,-34.5322,20.0403,60.42,52,9,14.05,ZA,1687086582
74,fort st. john,56.2499,-120.8529,36.91,96,60,5.53,CA,1687086583
75,crane,31.3974,-102.3501,82.69,27,47,9.26,US,1687086583
76,i-n-salah,27.1935,2.4607,105.33,9,0,18.1,DZ,1687086584
77,cambria,35.5641,-121.0808,57.74,89,73,2.1,US,1687086584
78,newman,37.3138,-121.0208,66.29,84,97,1.01,US,1687086585
79,glace bay,46.1969,-59.957,50.9,96,100,11.5,CA,1687086585
80,greymouth,-42.4667,171.2,48.79,86,74,7.58,NZ,1687086472
81,sotouboua,8.5667,0.9833,86.95,61,100,4.65,TG,1687086587
82,trenggalek,-8.05,111.7167,76.17,89,75,1.61,ID,1687086588
83,touros,-5.1989,-35.4608,80.04,77,90,11.1,BR,1687086589
84,klyuchi,52.2667,79.1667,75.87,46,65,14.79,RU,1687086589
85,mugia,43.1041,-9.2179,70.92,85,66,12.57,ES,1687086590
86,kodiak,57.79,-152.4072,53.11,71,0,11.5,US,1687086590
87,rockland,41.1668,-74.0496,64.13,78,26,9.01,US,1687086591
88,utrik,11.2278,169.8474,82.08,78,99,15.64,MH,1687086591
89,geraldton,-28.7667,114.6,54.01,71,100,8.05,AU,1687086592
90,qui nhon,13.7667,109.2333,83.05,86,78,14.7,VN,1687086592
91,eastham,41.8301,-69.9739,61.12,87,100,1.99,US,1687086593
92,okha,53.5739,142.9478,42.48,95,37,6.02,RU,1687086593
93,angra do heroismo,38.65,-27.2167,65.75,95,100,9.06,PT,1687086594
94,tiksi,71.6872,128.8694,50.65,56,77,10.87,RU,1687086595
95,pacific grove,36.6177,-121.9166,57.65,88,100,5.75,US,1687086596
96,udachny,66.4167,112.4,53.46,81,89,15.95,RU,1687086597
97,miguel ahumada,30.6167,-106.5167,75.2,18,17,3.98,MX,1687086598
98,road town,18.4167,-64.6167,82.44,74,75,9.22,VG,1687086598
99,spearfish,44.4908,-103.8594,59.09,55,74,5.01,US,1687086599
100,badger,64.8,-147.5333,54.52,93,40,0.0,US,1687086446
101,ibaiti,-23.8486,-50.1878,45.68,89,0,2.3,BR,1687086600
102,barabai,-2.5833,115.3833,76.93,90,100,1.79,ID,1687086600
103,weno,7.4515,151.8468,78.75,94,100,3.44,FM,1687086601
104,vilyuchinsk,52.9306,158.4028,46.67,99,100,6.4,RU,1687086602
105,shajiang,26.7825,119.9669,78.62,94,99,5.3,CN,1687086602
106,port lincoln,-34.7333,135.8667,57.38,67,56,21.05,AU,1687086603
107,alta,69.9689,23.2717,63.66,61,0,13.8,NO,1687086603
108,yanchep,-31.55,115.6833,56.95,61,24,7.4,AU,1687086604
109,iqaluit,63.7506,-68.5145,34.7,80,73,5.99,CA,1687086604
110,tamandare,-8.7597,-35.1047,79.63,74,73,5.59,BR,1687086605
111,larkird,35.4894,66.6641,91.67,11,77,10.13,AF,1687086606
112,merizo village,13.2658,144.6691,82.96,91,98,13.73,GU,1687086607
113,chiredzi,-21.05,31.6667,84.38,24,0,2.84,ZW,1687086608
114,lucapa,-8.4192,20.7447,89.15,16,97,5.53,AO,1687086608
115,invercargill,-46.4,168.35,41.14,86,46,4.34,NZ,1687086609
116,rongelap,11.1635,166.8941,81.95,79,100,15.39,MH,1687086609
117,enewetak,11.3474,162.3373,81.39,81,100,15.5,MH,1687086610
118,soe,-9.8607,124.284,60.26,78,2,6.04,ID,1687086612
119,ribeira grande,38.5167,-28.7,69.78,100,75,16.11,PT,1687086613
120,abingdon,51.6711,-1.2828,78.46,66,20,5.75,GB,1687086613
121,san luis,-33.295,-66.3356,43.54,66,95,7.34,AR,1687086614
122,pyt-yakh,60.7499,72.8582,56.41,40,100,8.68,RU,1687086615
123,okakarara,-20.5833,17.4333,79.16,7,0,9.53,NA,1687086615
124,pingliang,35.5392,106.6861,66.67,66,51,9.86,CN,1687086616
125,uribia,11.7139,-72.266,80.31,72,98,15.64,CO,1687086617
126,cockburn town,21.4612,-71.1419,82.99,78,84,20.6,TC,1687086603
127,garoua boulai,5.8833,14.55,78.46,72,78,3.6,CM,1687086618
128,lamu,-2.2717,40.902,81.05,74,10,15.57,KE,1687086619
129,giyani,-23.3025,30.7187,86.45,12,0,2.95,ZA,1687086619
130,bubaque,11.2833,-15.8333,79.5,81,100,10.74,GW,1687086620
131,mpika,-11.8343,31.4529,73.56,26,0,7.14,ZM,1687086620
132,tolanaro,-25.0319,46.9987,74.95,55,18,15.82,MG,1687086621
133,itoman,26.1247,127.6694,80.62,94,75,12.66,JP,1687086622
134,gemena,3.25,19.7667,80.56,77,100,2.08,CD,1687086622
135,midvagur,62.0511,-7.1939,56.23,76,40,16.11,FO,1687086623
136,mount pearl,47.5166,-52.7813,43.45,97,100,6.71,CA,1687086623
137,ta`u,-14.2336,-169.5144,81.28,79,26,8.1,AS,1687086624
138,isafjordur,66.0755,-23.124,48.24,61,0,4.61,IS,1687086624
139,mhangura,-16.8939,30.1683,77.99,18,0,5.39,ZW,1687086625
140,guozhen,34.3659,107.359,79.21,81,65,4.14,CN,1687086625
141,gamay,12.3854,125.2979,79.81,87,73,4.32,PH,1687086626
142,hami,42.8,93.45,97.07,3,97,13.85,CN,1687086626
143,bikenibeu village,1.3673,173.1241,84.16,79,40,4.61,KI,1687086627
144,filingue,14.3521,3.3168,99.61,31,61,10.18,NE,1687086627
145,pontes e lacerda,-15.2261,-59.3353,53.87,77,18,3.58,BR,1687086628
146,lihue,21.9789,-159.3672,74.79,83,20,10.36,US,1687086518
147,posse,-14.0931,-46.3694,69.42,54,0,5.37,BR,1687086629
148,iskateley,67.6803,53.1512,41.05,62,100,16.8,RU,1687086630
149,mount gambier,-37.8333,140.7667,47.86,91,100,9.78,AU,1687086630
150,hithadhoo,-0.6,73.0833,83.16,72,87,7.67,MV,1687086379
151,conception bay south,47.4999,-52.9981,44.04,98,100,7.47,CA,1687086632
152,ruteng,-8.6136,120.4721,61.5,92,96,1.63,ID,1687086632
153,bamboo flat,11.7,92.7167,84.29,74,40,10.36,IN,1687086633
154,cabo san lucas,22.8909,-109.9124,80.62,68,62,8.43,MX,1687086528
155,egilsstadir,65.2653,-14.3948,72.18,43,76,9.42,IS,1687086634
156,ad dilam,23.9915,47.1627,106.7,6,39,17.47,SA,1687086636
157,tralee,52.2704,-9.7026,67.48,67,56,9.64,IE,1687086637
158,punta arenas,-53.15,-70.9167,33.91,86,40,13.8,CL,1687086637
159,pak phanang,8.3511,100.202,77.9,82,100,8.16,TH,1687086638
160,fort bragg,35.139,-79.006,66.2,83,0,1.01,US,1687086638
161,san andres,12.5847,-81.7006,82.42,89,40,6.91,CO,1687086639
162,lagoa,39.05,-27.9833,67.84,86,96,10.04,PT,1687086639
163,san luis de la loma,17.2706,-100.8939,82.62,83,68,2.48,MX,1687086640
164,suluru,13.7,80.0167,83.89,67,100,19.15,IN,1687086640
165,kavaratti,10.5669,72.642,84.07,75,100,15.99,IN,1687086641
166,tionk essil,12.7856,-16.5217,81.75,65,100,3.83,SN,1687086644
167,talas,38.6908,35.5538,72.27,38,40,12.66,TR,1687086645
168,oxelosund,58.6706,17.1015,61.18,94,75,10.36,SE,1687086457
169,gouyave,12.1646,-61.7296,81.37,78,20,14.97,GD,1687086646
170,vorgashor,67.5833,63.95,45.14,58,100,12.91,RU,1687086646
171,birendranagar,28.6019,81.6339,94.89,39,78,8.68,NP,1687086647
172,molde,62.7375,7.1591,66.04,72,0,6.91,NO,1687086647
173,durazno,-33.4131,-56.5006,35.82,87,0,2.26,UY,1687086649
174,alaghsas,17.0187,8.0168,106.29,12,49,9.55,NE,1687086649
175,luohe,33.5717,114.0353,71.55,98,100,3.27,CN,1687086650
176,bemidji,47.4736,-94.8803,64.49,99,100,0.0,US,1687086650
177,zyryanskoye,56.8306,86.6258,62.55,55,83,8.01,RU,1687086651
178,sasebo,33.1592,129.7228,75.04,92,100,4.52,JP,1687086652
179,thunder bay,48.4001,-89.3168,50.97,81,76,3.67,CA,1687086652
180,kostanay,53.1667,63.5833,66.49,72,75,11.18,KZ,1687086653
181,portland,45.5234,-122.6762,53.62,80,100,6.91,US,1687086654
182,riohacha,11.5444,-72.9072,77.41,88,95,6.53,CO,1687086655
183,harper,4.375,-7.7169,81.81,70,83,9.4,LR,1687086655
184,severoural'sk,60.1533,59.952,54.91,36,100,4.79,RU,1687086656
185,lumphat,13.4878,106.9816,77.88,97,99,2.75,KH,1687086657
186,haiku-pauwela,20.9219,-156.3051,75.04,69,40,1.99,US,1687086657
187,knyaze-volkonskoye,48.4642,135.4567,68.34,71,47,2.75,RU,1687086658
188,alice springs,-23.7,133.8833,62.15,31,90,6.91,AU,1687086658
189,north battleford,52.7834,-108.2847,52.0,61,62,5.79,CA,1687086659
190,thompson,55.7435,-97.8558,61.72,52,97,3.91,CA,1687086659
191,ilhabela,-23.7781,-45.3581,63.73,80,30,4.16,BR,1687086660
192,hermanus,-34.4187,19.2345,62.8,61,10,23.11,ZA,1687086438
193,palikir - national government center,6.9248,158.1611,75.94,100,75,2.3,FM,1687086661
194,metlili chaamba,32.2667,3.6333,97.57,13,0,13.65,DZ,1687086661
195,kirensk,57.7853,108.1119,78.46,37,27,1.23,RU,1687086662
196,port alfred,-33.5906,26.891,67.17,58,51,3.0,ZA,1687086663
197,arenapolis,-14.4503,-56.8461,57.54,77,1,1.77,BR,1687086664
198,chonchi,-42.6128,-73.8092,38.12,83,100,1.99,CL,1687086664
199,darnah,32.767,22.6367,75.6,60,0,22.21,LY,1687086665
200,andovoranto,-18.95,49.1,74.57,77,71,9.62,MG,1687086665
201,aplahoue,6.9333,1.6833,88.45,58,83,6.55,BJ,1687086666
202,dayr samit,31.5206,34.9744,81.03,18,0,16.08,PS,1687086666
203,lagunas,-5.2269,-75.6753,69.91,84,93,1.52,PE,1687086667
204,la reforma,25.0833,-108.05,77.05,68,86,2.26,MX,1687086668
205,aykhal,66.0,111.5,53.22,91,85,16.15,RU,1687086668
206,baruun-urt,46.6806,113.2792,72.64,56,100,9.75,MN,1687086669
207,terrace,54.5163,-128.6035,44.22,97,99,1.34,CA,1687086670
208,guru har sahai,30.7167,74.4167,105.13,23,56,12.8,IN,1687086671
209,tsiombe,-25.3,45.4833,78.67,43,0,13.67,MG,1687086671
210,prey veng,11.4868,105.3253,77.63,90,94,12.3,KH,1687086672
211,nilopolis,-22.8075,-43.4139,71.65,88,40,3.44,BR,1687086673
212,qianjiang,30.4151,112.8859,71.49,93,99,10.58,CN,1687086673
213,labrador city,52.9463,-66.9114,42.71,87,100,9.22,CA,1687086674
214,inari,68.906,27.0288,68.2,38,93,6.76,FI,1687086675
215,villa gesell,-37.2639,-56.973,47.75,69,90,9.08,AR,1687086675
216,korla,41.7597,86.1469,95.47,12,85,9.51,CN,1687086676
217,luena,-11.7833,19.9167,84.34,16,0,0.83,AO,1687086676
218,avarua,-21.2078,-159.775,73.45,100,75,13.8,CK,1687086677
219,kattivakkam,13.2167,80.3167,86.09,82,88,8.1,IN,1687086677
220,flin flon,54.7682,-101.865,58.86,85,100,1.54,CA,1687086678
221,kone,-21.0595,164.8658,65.8,71,71,3.85,NC,1687086678
222,el dorado,38.7666,-120.5177,67.62,62,86,1.01,US,1687086679
223,uturoa,-16.7333,-151.4333,80.64,67,95,6.42,PF,1687086462
224,ad douiem,14.0012,32.3116,97.63,30,100,12.06,SD,1687086680
225,mahina,-17.5065,-149.489,74.75,83,0,3.44,PF,1687086680
226,caconda,-13.7333,15.0667,78.67,13,0,3.36,AO,1687086681
227,santa marta,11.2408,-74.199,79.9,82,100,3.0,CO,1687086682
228,lerwick,60.1545,-1.1494,55.4,77,100,4.99,GB,1687086630
229,kedainiai,55.2883,23.9747,68.14,85,100,6.06,LT,1687086455
230,ngunut,-8.1058,112.0159,74.26,87,37,2.93,ID,1687086683
231,russkiy kameshkir,52.8589,46.0892,65.21,42,2,15.7,RU,1687086684
232,licata,37.1071,13.9461,89.24,50,0,9.24,IT,1687086684
233,santa marinella,42.0345,11.8536,87.55,71,20,7.63,IT,1687086685
234,cheremukhovo,60.3484,59.9851,54.45,38,100,5.03,RU,1687086685
235,ola,59.5833,151.2833,46.89,92,76,5.44,RU,1687086686
236,firmat,-33.4594,-61.4832,37.9,92,19,6.96,AR,1687086687
237,kristinestad,62.2743,21.376,80.1,39,43,0.96,FI,1687086687
238,madera,37.1666,-119.8343,76.08,53,65,2.57,US,1687086688
239,wynyard,-41.0,145.7167,47.98,91,100,14.18,AU,1687086688
240,hisor,38.525,68.5512,100.15,7,18,18.88,TJ,1687086689
241,yanykurgan,43.915,67.2481,105.03,9,57,20.29,KZ,1687086690
242,ilulissat,69.2167,-51.1,28.85,66,56,6.78,GL,1687086482
243,mariental,-24.6333,17.9667,70.2,14,0,5.57,NA,1687086691
244,galveston,29.3669,-94.9669,82.49,93,100,13.8,US,1687086691
245,coxim,-18.5067,-54.76,53.96,84,0,6.22,BR,1687086692
246,port macquarie,-31.4333,152.9167,51.89,59,8,5.7,AU,1687086478
247,nguigmi,14.2495,13.1092,98.19,28,92,9.24,NE,1687086693
248,alofi,-19.0595,-169.9187,77.34,86,37,13.04,NU,1687086693
249,bereeda,11.8704,51.0579,92.14,54,12,8.39,SO,1687086694
250,aasiaat,68.7098,-52.8699,31.84,77,98,11.83,GL,1687086695
251,mont-laurier,46.5501,-75.4993,55.02,94,27,2.73,CA,1687086695
252,argo,37.6333,22.7333,73.78,58,65,4.23,GR,1687086696
253,palmer,42.1584,-72.3287,60.62,86,20,0.0,US,1687086696
254,devils lake,48.1128,-98.8651,60.94,84,0,1.99,US,1687086697
255,pachino,36.7186,15.0907,74.84,57,0,16.4,IT,1687086697
256,guiuan,11.0333,125.7247,84.15,75,46,8.32,PH,1687086698
257,amboasary,-25.0333,46.3833,81.77,40,0,5.5,MG,1687086698
258,coahuayana de hidalgo,18.7,-103.6583,78.76,67,90,2.15,MX,1687086699
259,filipstad,59.7124,14.1683,58.64,81,100,1.97,SE,1687086699
260,rikaze,29.25,88.8833,75.2,19,1,8.66,CN,1687086700
261,colonia,50.9333,6.95,88.95,29,0,3.44,DE,1687086530
262,altay,47.8667,88.1167,78.08,24,7,6.35,CN,1687086701
263,nar'yan-mar,67.6713,53.087,41.14,62,100,16.78,RU,1687086702
264,kalmunai,7.4167,81.8167,84.96,68,99,6.98,LK,1687086702
265,lebu,-37.6167,-73.65,47.8,63,100,11.48,CL,1687086703
266,tutoia,-2.7619,-42.2744,79.54,83,66,6.53,BR,1687086703
267,zhanaozen,43.3,52.8,90.43,24,0,11.34,KZ,1687086704
268,harstad,68.799,16.5293,74.59,65,38,1.72,NO,1687086704
269,lompoc,34.6391,-120.4579,59.02,88,100,5.01,US,1687086705
270,ketchikan,55.3422,-131.6461,44.58,87,0,0.0,US,1687086705
271,prince rupert,54.3161,-130.3201,47.89,97,100,4.61,CA,1687086706
272,timbuktu,16.7735,-3.0074,101.68,26,52,14.54,ML,1687086706
273,saipan,15.1355,145.701,83.1,100,20,10.36,MP,1687086707
274,polyarnyy,69.1989,33.4478,49.57,62,100,7.7,RU,1687086708
275,papao,-17.75,-149.55,74.66,66,45,2.62,PF,1687086708
276,saldanha,-33.0117,17.9442,57.25,65,10,17.92,ZA,1687086709
277,caala,-12.8525,15.5606,77.54,15,0,2.64,AO,1687086710
278,chicomuselo,15.7667,-92.2667,71.15,69,18,2.95,MX,1687086711
279,katsuren-haebaru,26.3369,127.8719,80.62,88,95,14.9,JP,1687086711
280,sisimiut,66.9395,-53.6735,40.19,56,99,3.27,GL,1687086712
281,mulanje,-16.0316,35.5,80.92,28,0,5.57,MW,1687086712
282,sinabang,2.4803,96.3801,83.73,74,100,9.1,ID,1687086713
283,kropyvnytskyi,48.5132,32.2597,82.69,37,1,13.35,UA,1687086711
284,pematangsiantar,2.9595,99.0687,75.33,93,100,3.51,ID,1687086714
285,kayangel,8.0823,134.7173,84.13,74,100,10.27,PW,1687086714
286,saint-philippe,-21.3585,55.7679,74.79,62,20,13.47,RE,1687086715
287,whitehorse,60.7161,-135.0538,47.25,90,99,4.68,CA,1687086715
288,at taraf,25.3628,49.725,109.27,8,40,16.35,SA,1687086716
289,tongliao,43.6125,122.2653,92.8,23,55,4.03,CN,1687086716
290,port augusta,-32.5,137.7667,56.01,48,73,7.61,AU,1687086717
291,pokrovo-prigorodnoye,52.6841,41.4175,68.38,45,9,10.11,RU,1687086717
292,saint-francois,46.4154,3.9054,74.68,60,0,3.44,FR,1687086718
293,hasaki,35.7333,140.8333,78.22,82,100,13.58,JP,1687086718
294,arraial do cabo,-22.9661,-42.0278,69.66,78,75,16.11,BR,1687086719
295,praia da vitoria,38.7333,-27.0667,64.94,91,100,7.47,PT,1687086719
296,kavieng,-2.5744,150.7967,80.58,83,80,7.7,PG,1687086720
297,namibe,-15.1961,12.1522,76.26,53,0,6.82,AO,1687086720
298,heinsch,49.7008,5.7465,81.32,45,66,1.99,LU,1687086721
299,mar del plata,-38.0023,-57.5575,47.08,85,100,4.61,AR,1687086722
300,argostolion,38.1811,20.489,77.07,57,20,17.27,GR,1687086722
301,mumford,5.2618,-0.759,78.13,86,100,9.15,GH,1687086723
302,ulladulla,-35.35,150.4667,48.9,61,8,10.8,AU,1687086724
303,vershino-darasunskiy,52.35,115.5167,60.93,94,100,9.78,RU,1687086724
304,arkhara,49.4212,130.0842,65.98,75,53,4.34,RU,1687086725
305,medina,24.4686,39.6142,108.03,4,0,4.61,SA,1687086502
306,primero de mayo,-32.2552,-58.4228,35.55,91,0,6.04,AR,1687086726
307,ca mau,9.1769,105.15,78.78,83,91,13.47,VN,1687086726
308,tangalle,6.024,80.7911,83.88,70,86,14.88,LK,1687086728
309,ulety,51.3572,112.4849,62.51,66,100,8.59,RU,1687086728
310,igrim,63.1906,64.4162,55.44,39,100,3.91,RU,1687086729
311,karratha,-20.7377,116.8463,61.65,86,100,16.17,AU,1687086730
312,atmakur,15.8833,78.5833,96.49,36,84,5.7,IN,1687086730
313,leer,53.2316,7.461,82.0,49,90,4.68,DE,1687086731
314,thayetmyo,19.3167,95.1833,91.6,53,96,8.39,MM,1687086731
315,vadso,70.0744,29.7487,63.48,62,40,6.91,NO,1687086732
316,quellon,-43.1167,-73.6167,43.05,93,100,3.44,CL,1687086732
317,san antonio de pale,-1.4014,5.6325,76.73,84,100,13.0,GQ,1687086733
318,calama,-22.4667,-68.9333,41.49,9,1,18.41,CL,1687086734
319,redding,40.5865,-122.3917,72.63,59,0,5.75,US,1687086734
320,puerto deseado,-47.7503,-65.8938,40.98,79,60,16.31,AR,1687086735
321,pangoa,-12.1167,-73.0,62.44,94,95,1.45,PE,1687086735
322,sao joao da barra,-21.6403,-41.0511,68.09,83,68,8.61,BR,1687086736
323,bhatapara,21.7333,81.9333,111.15,16,96,10.11,IN,1687086736
324,belomorsk,64.5232,34.7668,68.59,31,49,6.73,RU,1687086737
325,carutapera,-1.195,-46.02,80.94,81,34,5.44,BR,1687086737
326,dean funes,-30.4204,-64.3498,42.37,83,37,4.18,AR,1687086470
327,hammerfest,70.6634,23.6821,57.65,41,0,13.8,NO,1687086738
328,minas de marcona,-15.2119,-75.1103,52.32,91,89,7.61,PE,1687086739
329,beroroha,-21.6667,45.1667,88.61,24,0,5.03,MG,1687086740
330,solnechnyy,50.7214,136.6319,61.25,72,19,5.19,RU,1687086740
331,al ghayzah,16.2079,52.176,89.38,68,14,15.48,YE,1687086741
332,susuman,62.7833,148.1667,60.04,66,74,6.13,RU,1687086741
333,arvayheer,46.2639,102.775,54.73,56,98,17.09,MN,1687086742
334,nemuro,43.3236,145.575,50.83,89,44,13.04,JP,1687086742
335,new shagunnu,10.3396,4.4688,90.37,57,95,5.21,NG,1687086743
336,ponta delgada,37.7333,-25.6667,63.32,88,75,10.36,PT,1687086541
337,flying fish cove,-10.4217,105.6791,78.48,94,75,6.91,CX,1687086744
338,laibin,23.7,109.2667,84.04,81,99,9.62,CN,1687086745
339,payson,40.0444,-111.7321,61.38,57,0,4.61,US,1687086745
340,inongo,-1.95,18.2667,77.07,74,87,2.1,CD,1687086746
341,deqen,29.9618,90.7188,61.59,50,68,2.37,CN,1687086746
342,namsos,64.4662,11.4957,82.31,32,10,8.05,NO,1687086747
343,pimentel,-6.8367,-79.9342,70.09,83,0,10.36,PE,1687086747
344,kantagi,43.5264,68.5775,98.85,9,83,17.96,KZ,1687086748
345,zelenoborskiy,66.845,32.3622,60.76,54,100,4.18,RU,1687086749
346,berwick-upon-tweed,55.7833,-2.0,69.44,78,99,11.39,GB,1687086614
347,the pas,53.8251,-101.2541,59.02,94,100,5.75,CA,1687086750
348,chernyshevskiy,63.0128,112.4714,68.07,46,83,5.73,RU,1687086750
349,iquique,-20.2208,-70.1431,60.84,71,14,5.48,CL,1687086695
350,tokar,18.4254,37.729,108.0,17,13,2.15,SD,1687086751
351,carnarvon,-24.8667,113.6333,68.97,44,100,3.51,AU,1687086637
352,kushiro,42.975,144.3747,51.44,90,28,6.73,JP,1687086752
353,boguchar,49.9358,40.545,74.16,49,0,14.23,RU,1687086753
354,mossendjo,-2.9506,12.7261,83.71,57,81,4.9,CG,1687086753
355,hailar,49.2,119.7,70.86,65,99,21.27,CN,1687086754
356,usogorsk,63.4106,48.6872,44.73,55,100,9.42,RU,1687086754
357,tindouf,27.6711,-8.1474,84.65,37,2,21.85,DZ,1687086755
358,enriquillo,17.9,-71.2333,78.93,86,100,11.18,DO,1687086756
359,magadan,59.5667,150.8,47.01,91,80,5.66,RU,1687086636
360,caleta olivia,-46.4393,-67.5281,40.14,46,100,13.13,AR,1687086757
361,petlawad,23.0,74.8,92.79,43,89,22.41,IN,1687086757
362,kikwit,-5.041,18.8162,95.49,25,45,2.48,CD,1687086758
363,port mathurin,-19.6833,63.4167,76.01,73,13,10.54,MU,1687086758
364,baidoa,3.1138,43.6498,88.36,40,32,16.06,SO,1687086759
365,rabo de peixe,37.8,-25.5833,62.11,88,75,10.36,PT,1687086760
366,griffith,41.5284,-87.4237,63.9,86,0,5.75,US,1687086760
367,talnakh,69.4865,88.3972,45.21,71,100,11.83,RU,1687086761
368,al burayqah,30.4062,19.5739,76.05,59,0,10.89,LY,1687086761
369,forster,-32.1667,152.5167,54.95,53,2,9.35,AU,1687086762
370,tura,25.5198,90.2201,80.35,91,69,6.73,IN,1687086503
371,mbanza kongo,-6.267,14.2401,84.52,50,70,3.11,AO,1687086764
372,zeya,53.75,127.2667,68.56,58,64,0.98,RU,1687086764
373,saudarkrokur,65.7461,-19.6394,48.0,96,100,3.74,IS,1687086765
374,ath thawrah,35.8469,38.5443,87.6,30,0,22.57,SY,1687086766
375,thames,-37.1333,175.5333,51.31,93,98,1.95,NZ,1687086766
376,san juan,-31.5375,-68.5364,42.1,60,56,3.47,AR,1687086767
377,tazacorte,28.629,-17.9293,77.97,86,75,8.05,ES,1687086767
378,porto novo,6.4965,2.6036,85.82,71,97,11.41,BJ,1687086768
379,caleta de carquin,-11.0925,-77.6267,67.42,85,96,7.94,PE,1687086768
380,sao miguel do araguaia,-13.275,-50.1628,73.22,61,0,7.38,BR,1687086769
381,sidney,-33.8679,151.2073,52.32,61,0,16.11,AU,1687086621
382,awjilah,29.1081,21.2869,87.94,24,0,9.71,LY,1687086770
383,tuy hoa,13.0833,109.3,81.95,83,98,8.48,VN,1687086770
384,nyala,12.05,24.8833,95.29,30,39,4.38,SD,1687086725
385,mont-joli,48.5839,-68.1921,47.7,100,100,24.16,CA,1687086772
386,kailua-kona,19.6406,-155.9956,76.96,82,0,5.99,US,1687086773
387,tabou,4.423,-7.3528,81.77,71,100,9.24,CI,1687086773
388,puerto baquerizo moreno,-0.9,-89.6,77.2,80,97,13.89,EC,1687086774
389,pauini,-7.7136,-66.9764,69.08,83,98,3.0,BR,1687086775
390,kapuskasing,49.4169,-82.4331,44.69,87,75,1.14,CA,1687086775
391,sitka,57.0531,-135.33,48.09,87,75,3.44,US,1687086776
392,vytegra,61.0064,36.4481,59.07,43,3,8.79,RU,1687086776
393,kolwezi,-10.7148,25.4667,81.72,19,0,1.68,CD,1687086777
394,ghanzi,-21.5667,21.7833,78.21,9,0,6.89,BW,1687086777
395,olinda,-8.0089,-34.8553,78.53,83,75,4.61,BR,1687086778
396,bonthe,7.5264,-12.505,81.59,77,100,7.58,SL,1687086778
397,san agustin de valle fertil,-30.6335,-67.4682,38.68,81,40,0.94,AR,1687086779
398,gamba,-2.65,10.0,78.35,74,83,8.5,GA,1687086779
399,cadale,2.7603,46.3222,83.19,71,6,20.89,SO,1687086780
400,penonome,8.5167,-80.3667,76.68,90,89,3.96,PA,1687086781
401,hanceville,34.0607,-86.7675,71.51,79,77,3.38,US,1687086781
402,jinsha,32.0898,121.0735,74.98,97,100,10.71,CN,1687086782
403,pathein,16.7833,94.7333,82.72,79,100,11.3,MM,1687086782
404,xique xique,-10.8217,-42.7311,75.29,61,0,11.27,BR,1687086783
405,san ignacio de velasco,-16.3667,-60.95,53.42,74,21,3.94,BO,1687086783
406,howrah,22.5892,88.3103,91.4,75,75,13.8,IN,1687086646
407,nova sintra,14.8667,-24.7167,71.15,80,93,11.65,CV,1687086784
408,mogocha,53.7333,119.7667,71.62,34,100,8.72,RU,1687086785
409,brookings,44.3114,-96.7984,64.18,96,0,0.0,US,1687086786
410,balikpapan,-1.2675,116.8289,81.59,83,20,2.3,ID,1687086786
411,palmeira,-25.4294,-50.0064,40.96,91,1,1.86,BR,1687086787
412,selfoss,63.9331,-20.9971,52.05,89,100,4.76,IS,1687086787
413,bulgan,48.8125,103.5347,65.32,52,18,2.98,MN,1687086789
414,puttalam,8.0362,79.8283,82.22,78,100,10.6,LK,1687086789
415,el calafate,-50.3408,-72.2768,27.7,79,32,3.47,AR,1687086790
416,binzhou,37.3667,118.0167,87.71,32,82,13.11,CN,1687086791
417,kotlas,61.2611,46.6556,49.37,50,100,8.88,RU,1687086791
418,pangody,65.85,74.4859,38.32,84,100,15.79,RU,1687086792
419,fortuna,40.5982,-124.1573,52.93,95,100,5.75,US,1687086793
420,kingston,17.997,-76.7936,78.24,80,100,2.21,JM,1687086793
421,burang,30.25,81.1667,47.37,94,100,6.69,CN,1687086794
422,edson,53.5835,-116.4356,44.74,93,100,4.61,CA,1687086794
423,ajdabiya,30.7554,20.2263,82.02,38,0,14.32,LY,1687086795
424,tazovsky,67.4667,78.7,37.85,83,100,12.3,RU,1687086795
425,fortaleza,-3.7227,-38.5247,82.53,78,20,8.05,BR,1687086684
426,swift current,50.2834,-107.8014,52.61,93,0,9.22,CA,1687086796
427,kanniyakumari,8.0833,77.5667,84.97,68,100,18.63,IN,1687086797
428,isangel,-19.55,169.2667,69.01,68,0,10.76,VU,1687086797
429,salekhard,66.53,66.6019,48.31,57,100,15.57,RU,1687086798
430,jindabyne,-36.4167,148.6333,33.15,89,10,5.79,AU,1687086798
431,shimoda,34.6667,138.95,72.1,90,100,7.31,JP,1687086799
432,vernon,50.2581,-119.2691,56.01,62,100,2.3,CA,1687086799
433,yantai,37.5333,121.4,71.31,74,69,7.7,CN,1687086800
434,duba,27.3513,35.6901,92.23,48,0,19.01,SA,1687086800
435,komsomolets,53.7453,62.0708,59.27,92,100,8.97,KZ,1687086801
436,northam,51.0333,-4.2167,68.25,79,94,3.76,GB,1687086801
437,altamira,-3.2033,-52.2064,73.33,97,92,1.3,BR,1687086802
438,nizao,18.25,-70.2,81.46,82,100,8.08,DO,1687086802
439,salinas,36.6777,-121.6555,58.06,88,100,5.75,US,1687086718
440,newnham,-41.3833,147.1333,48.31,92,75,23.02,AU,1687086803
441,hojo,33.9766,132.7777,75.13,62,100,2.28,JP,1687086804
442,cill airne,52.05,-9.5167,66.25,82,75,2.3,IE,1687086805
443,grande prairie,55.1667,-118.8027,46.58,66,75,6.91,CA,1687086806
444,constantia,44.1833,28.65,75.88,62,100,9.69,RO,1687086517
445,anatuya,-28.4606,-62.8347,47.35,88,43,6.96,AR,1687086807
446,el carril,-25.0741,-65.4917,34.84,75,0,1.66,AR,1687086807
447,yaren,-0.5472,166.916,83.16,70,94,2.73,NR,1687086808
448,karasu,41.071,30.7854,73.2,81,59,7.31,TR,1687086808
449,sake,-1.5736,29.045,74.98,62,92,3.78,CD,1687086809
450,kolokani,13.5728,-8.0339,94.41,37,96,9.98,ML,1687086809
451,askino,56.0901,56.5783,51.69,67,93,17.25,RU,1687086810
452,pisco,-13.7,-76.2167,64.45,82,100,11.5,PE,1687086811
453,charleston,32.7766,-79.9309,77.02,97,0,3.44,US,1687086707
454,kimbe,-5.5502,150.1429,76.42,89,79,6.17,PG,1687086812
455,nizhniy kuranakh,58.8353,125.4869,67.12,68,55,4.23,RU,1687086812
456,el fasher,13.6279,25.3494,97.54,22,26,5.46,SD,1687086757
457,atafu village,-8.5421,-172.5159,82.99,75,34,6.44,TK,1687086815
458,serafimovskiy,54.4241,53.7964,61.25,39,4,19.01,RU,1687086816
459,lazaro cardenas,17.9583,-102.2,81.01,76,13,3.94,MX,1687086816
460,sirnak,37.5228,42.4594,82.47,21,0,16.53,TR,1687086532
461,luwuk,-0.9516,122.7875,77.72,91,36,4.38,ID,1687086817
462,grootfontein,-19.5667,18.1167,76.24,9,0,9.6,NA,1687086818
463,tharangambadi,11.0319,79.8528,78.42,84,100,20.0,IN,1687086819
464,dawei,14.0833,98.2,76.24,94,100,6.42,MM,1687086820
465,de aar,-30.6497,24.0123,58.6,33,30,9.64,ZA,1687086820
466,jinka,5.65,36.65,76.69,56,43,5.68,ET,1687086820
467,kongolo,-5.3833,27.0,94.6,23,4,7.38,CD,1687086821
468,kruisfontein,-34.0033,24.7314,63.88,52,33,5.48,ZA,1687086822
469,severo-yeniseyskiy,60.3725,93.0408,56.41,37,69,8.37,RU,1687086822
470,kinablangan,7.6947,126.5503,80.92,78,100,2.21,PH,1687086823
471,bridgewater,44.3835,-64.5155,53.11,99,100,6.91,CA,1687086824
472,krasnoufimsk,56.6059,57.7669,45.3,94,100,9.19,RU,1687086824
473,camarinas,43.1311,-9.1817,70.93,83,60,12.28,ES,1687086825
474,bodaybo,57.8506,114.1933,64.13,64,100,7.74,RU,1687086825
475,guelmim,28.987,-10.0574,71.94,73,75,14.97,MA,1687086826
476,tambopata,-12.7333,-69.1833,55.29,76,0,0.0,PE,1687086828
477,cannonvale,-20.2833,148.7,69.19,76,18,4.47,AU,1687086828
478,svetlyy,54.675,20.1347,68.05,64,93,3.6,RU,1687086829
479,mana,5.6592,-53.7767,78.3,89,26,6.87,GF,1687086830
480,yershov,51.3513,48.2766,72.25,33,7,19.86,RU,1687086830
481,yichang,30.7144,111.2847,72.79,96,100,1.3,CN,1687086831
482,shubarshi,48.5872,57.1869,85.15,34,85,3.22,KZ,1687086831
483,nampa,43.5407,-116.5635,62.65,77,100,4.61,US,1687086832
484,hadibu,12.65,54.0333,87.21,60,1,22.35,YE,1687086627
485,broken hill,-31.95,141.4333,48.99,48,1,8.55,AU,1687086834
486,esmeraldas,-19.7625,-44.3139,59.86,79,2,3.09,BR,1687086754
487,grand falls-windsor,48.9332,-55.6649,43.5,94,100,1.01,CA,1687086835
488,soio,-6.1349,12.3689,78.62,74,88,6.51,AO,1687086836
489,artesia,33.8658,-118.0831,65.88,88,100,4.0,US,1687086836
490,lospalos,-8.5186,127.0025,67.33,86,2,4.61,TL,1687086837
491,turkmenbasy,40.0222,52.9552,81.77,47,0,9.4,TM,1687086837
492,saint-joseph,-21.3667,55.6167,78.48,62,9,12.53,RE,1687086838
493,salalah,17.0151,54.0924,87.89,79,75,17.27,OM,1687086625
494,chukhloma,58.7525,42.6825,60.66,33,9,8.5,RU,1687086839
495,shache,38.4167,77.2406,98.35,9,15,2.13,CN,1687086840
496,sampit,-2.5333,112.95,78.46,88,90,1.19,ID,1687086841
497,montevideo,-34.8335,-56.1674,48.51,76,75,4.61,UY,1687086841
498,adrar,20.5022,-10.0711,100.85,9,2,12.97,MR,1687086843
499,tadine,-21.55,167.8833,68.05,66,8,10.51,NC,1687086843
500,hilo,19.7297,-155.09,72.25,90,100,5.75,US,1687086844
501,nizhniy odes,63.6445,54.856,43.45,58,100,9.71,RU,1687086845
502,remire-montjoly,4.9167,-52.2667,77.04,94,20,2.3,GF,1687086845
503,ouadda,8.0777,22.4007,86.7,58,96,2.51,CF,1687086846
504,volokolamsk,56.0336,35.9694,75.02,35,34,5.39,RU,1687086775
505,fandriana,-20.2333,47.3833,68.65,49,0,7.76,MG,1687086847
506,hovd,48.0056,91.6419,74.01,20,1,8.1,MN,1687086848
507,laguna,38.421,-121.4238,64.18,73,0,9.22,US,1687086848
508,floro,61.5996,5.0328,84.27,82,20,10.36,NO,1687086849
509,la'ie,21.6477,-157.9253,77.0,79,27,13.0,US,1687086849
510,mocimboa,-11.3167,40.35,83.8,52,4,10.89,MZ,1687086850
511,tra mhor,52.1624,-7.1524,66.72,76,75,9.22,IE,1687086851
512,revda,56.801,59.9303,51.57,67,100,3.11,RU,1687086851
513,yarmouth,41.7057,-70.2286,62.02,95,100,18.01,US,1687086852
514,winslow,35.0242,-110.6974,60.98,39,0,4.61,US,1687086852
515,igarka,67.4667,86.5833,43.57,67,100,9.53,RU,1687086853
516,hono,57.6897,11.6497,66.29,80,97,12.17,SE,1687086853
517,vila franca do campo,37.7167,-25.4333,63.01,77,82,9.73,PT,1687086854
518,prineville,44.2999,-120.8345,48.02,66,0,10.36,US,1687086854
519,shimokizukuri,40.8061,140.3861,61.21,87,11,6.62,JP,1687086855
520,puerto lempira,15.2667,-83.7667,78.46,88,97,8.3,HN,1687086856
521,nizhneangarsk,55.7833,109.55,48.38,67,100,3.58,RU,1687086856
522,nuuk,64.1835,-51.7216,41.61,65,20,11.5,GL,1687086605
523,kuala belait,4.5833,114.1833,81.27,76,89,5.44,BN,1687086857
524,kalianget,-7.05,113.9333,80.01,74,97,8.28,ID,1687086858
525,ghat,24.9647,10.1728,97.52,15,52,6.17,LY,1687086858
526,port moresby,-9.4431,147.1797,75.65,82,100,12.8,PG,1687086859
527,maham,28.9833,76.3,93.47,47,73,10.18,IN,1687086859
528,waitara,-38.925,174.25,57.49,82,99,10.29,NZ,1687086860
529,kombissiri,12.0656,-1.3375,93.18,40,99,8.5,BF,1687086860
530,sipalay,9.75,122.5,79.68,87,66,1.95,PH,1687086861
531,poronaysk,49.2167,143.1167,49.44,88,89,0.87,RU,1687086862
532,mersa matruh,31.3525,27.2453,77.36,59,0,19.75,EG,1687086862
533,tuntum,-5.2581,-44.6489,75.99,55,91,4.45,BR,1687086863
534,vangaindrano,-23.35,47.6,73.83,65,82,5.64,MG,1687086863
535,mutuali,-14.8706,37.0044,85.28,18,3,2.53,MZ,1687086864
536,swan hill,-35.3378,143.5544,47.53,58,4,11.25,AU,1687086864
537,sao felix do xingu,-6.6447,-51.995,72.07,96,43,0.51,BR,1687086864
538,kuta,-8.7233,115.1723,82.35,78,20,7.0,ID,1687086865
539,kapenguria,1.2511,35.0895,70.63,60,20,5.41,KE,1687086866
540,kununurra,-15.7667,128.7333,66.18,59,73,0.0,AU,1687086866
541,saint-paul,-21.0096,55.2707,80.69,78,32,6.04,RE,1687086800
542,aswan,24.0934,32.907,112.21,11,20,14.32,EG,1687086719
543,siwa oasis,29.2041,25.5195,89.91,27,0,9.22,EG,1687086868
544,santiago del torno,-17.9833,-63.3833,50.76,60,15,3.85,BO,1687086868
545,az zubayr,30.3945,47.7011,114.21,6,0,27.74,IQ,1687086869
546,palu,-0.8917,119.8707,76.66,95,39,0.51,ID,1687086869
547,jilin,43.0,126.0,78.67,57,70,2.62,CN,1687086870
548,tosontsengel,48.7567,98.2839,64.33,39,87,4.07,MN,1687086870
549,dzhankoy,45.7167,34.4,79.5,56,3,12.08,UA,1687086871
550,port blair,11.6667,92.75,84.24,74,40,10.36,IN,1687086871
551,hvardiiske,45.1209,34.0185,81.66,47,20,12.66,UA,1687086872
552,hounde,11.5,-3.5167,93.27,42,75,8.01,BF,1687086872
553,nogliki,51.8333,143.1667,42.48,94,84,9.86,RU,1687086873
554,nichinan,31.6,131.3667,71.28,80,100,3.33,JP,1687086874
555,cuito,-12.3833,16.9333,76.77,17,2,3.8,AO,1687086874
556,pallisa,1.145,33.7094,84.56,49,54,2.84,UG,1687086875
557,umluj,25.0213,37.2685,90.36,60,3,18.75,SA,1687086802
558,nikolayevsk-on-amure,53.1406,140.73,51.35,82,64,2.77,RU,1687086876
559,partizansk,43.1258,133.1339,61.36,68,26,1.68,RU,1687086876
560,marquette,46.5333,-87.6335,59.16,90,53,4.0,US,1687086877
561,acarau,-2.8856,-40.12,78.35,73,51,8.75,BR,1687086878
562,lubango,-14.9172,13.4925,74.97,15,0,2.75,AO,1687086878
563,bahia de kino,28.8333,-111.9333,82.98,52,100,9.66,MX,1687086879
564,antonio enes,-16.2325,39.9086,82.11,51,5,9.26,MZ,1687086879
565,merritt,50.1123,-120.7942,44.33,92,92,1.99,CA,1687086880
566,antofagasta,-23.65,-70.4,58.28,64,5,2.35,CL,1687086880
567,ribnita,47.7664,29.0011,82.08,36,79,8.01,MD,1687086881
568,isabela,6.7085,121.9711,80.56,80,61,4.14,PH,1687086882
569,aksaray,38.3726,34.0254,75.22,40,2,7.63,TR,1687086836
570,kidatu,-7.6992,36.9572,82.06,48,20,4.47,TZ,1687086883
571,izluchinsk,60.9794,76.9242,55.42,44,100,11.18,RU,1687086884
572,plettenberg bay,-34.0527,23.3716,61.63,58,0,4.85,ZA,1687086884
573,gondia,21.45,80.2,106.97,19,86,12.68,IN,1687086886
574,beloyarskiy,63.7119,66.6722,54.18,41,100,8.5,RU,1687086887
575,badr hunayn,23.7829,38.7905,111.33,9,3,16.28,SA,1687086887
576,sittwe,20.15,92.9,85.48,76,91,8.59,MM,1687086888
577,mutum biyu,8.6333,10.7667,90.86,51,90,6.02,NG,1687086888
578,camana,-16.6228,-72.7111,63.09,77,84,5.48,PE,1687086889
579,marka,1.7159,44.7717,83.79,67,50,18.3,SO,1687086889
580,praia,14.9215,-23.5087,84.74,58,20,11.5,CV,1687086828
581,tshikapa,-6.4167,20.8,94.26,18,25,5.12,CD,1687086891
582,changji,44.0167,87.3167,95.79,10,0,6.71,CN,1687086891
583,riverton,40.5219,-111.9391,71.11,53,0,16.11,US,1687086892
584,santa terezinha,-29.9002,-50.0904,49.69,85,0,10.4,BR,1687086892
585,nema,57.5067,50.5011,56.26,42,43,13.91,RU,1687086894
586,copiapo,-27.3667,-70.3333,55.09,49,2,2.57,CL,1687086894
587,tromso,69.6496,18.957,62.62,55,0,12.66,NO,1687086895
588,bu'aale,1.0833,42.5833,89.29,44,88,11.81,SO,1687086896
589,gereshk,31.8209,64.5701,111.42,3,0,7.67,AF,1687086896
590,talara,-4.5772,-81.2719,72.18,81,0,17.22,PE,1687086897
591,tyukhtet,56.5389,89.3011,62.62,83,99,3.42,RU,1687086897
592,betio village,1.358,172.9211,84.24,75,100,4.29,KI,1687086898
593,chany,55.3121,76.7647,67.08,57,100,7.45,RU,1687086899
594,sechura,-5.5569,-80.8222,71.13,85,0,12.33,PE,1687086899
595,brenham,30.1669,-96.3977,81.36,67,75,9.22,US,1687086900
596,howard springs,-12.497,131.047,75.11,65,24,5.26,AU,1687086900
597,xining,36.6167,101.7667,66.67,44,49,8.19,CN,1687086901
598,khorixas,-20.3667,14.9667,77.59,12,0,3.94,NA,1687086902
599,kwang binh,17.4833,106.6,87.35,64,100,12.17,VN,1687086902
600,chimore,-16.9833,-65.1333,54.1,85,24,0.94,BO,1687086903
601,gustavsberg,59.3268,18.3898,66.38,92,100,11.3,SE,1687086904
602,mamuju,-2.6748,118.8885,79.95,84,60,3.06,ID,1687086904
603,kolonia town,6.964,158.206,77.0,100,75,2.3,FM,1687086905
604,matoury,4.8483,-52.3317,76.96,94,20,2.3,GF,1687086906
